,City,Latitude,Longitude,Max Temp,Humidity,Cloudiness,Wind Speed,Country,Date
0,Tāybād,34.74,60.7756,39.92,61,0,1.54,IR,1611773811
1,Torbay,47.6666,-52.7314,30.0,80,75,13.8,CA,1611773812
2,Talnakh,69.4865,88.3972,-21.23,85,100,4.29,RU,1611773813
3,Saskylakh,71.9167,114.0833,-43.6,79,79,1.66,RU,1611773814
4,Pevek,69.7008,170.3133,-24.68,87,100,3.09,RU,1611773815
5,Cape Town,-33.9258,18.4232,68.0,68,20,23.02,ZA,1611773698
6,Iskateley,67.6803,53.1512,-5.12,89,100,16.28,RU,1611773817
7,Vaini,-21.2,-175.2,75.2,94,75,10.36,TO,1611773819
8,Airai,-8.9266,125.4092,61.5,100,100,3.8,TL,1611773820
9,San Andrés,12.5847,-81.7006,82.4,78,40,9.22,CO,1611773596
10,Nantucket,41.2835,-70.0995,39.2,93,90,13.8,US,1611773822
11,Port Alfred,-33.5906,26.891,66.0,94,19,3.0,ZA,1611773823
12,Salym,60.0625,71.4789,-7.83,91,100,6.4,RU,1611773824
13,Carnarvon,-24.8667,113.6333,71.6,83,0,18.41,AU,1611773825
14,Priozyornoye,45.2698,36.3303,50.67,72,100,21.52,UA,1611773826
15,Upernavik,72.7868,-56.1549,-1.61,90,100,1.95,GL,1611773828
16,Shuyskoye,59.3736,41.0305,28.94,98,99,10.09,RU,1611773829
17,Hilo,19.7297,-155.09,69.8,83,90,4.61,US,1611773830
18,Coquimbo,-29.9533,-71.3436,68.0,68,0,16.11,CL,1611773612
19,Hofn,64.2539,-15.2082,26.6,59,0,12.66,IS,1611773832
20,Angoche,-16.2325,39.9086,80.44,82,60,7.36,MZ,1611773833
21,Lanzhou,36.0564,103.7922,24.01,52,0,0.78,CN,1611773834
22,Erzin,36.9559,36.2,53.6,57,75,9.22,TR,1611773835
23,Jamestown,42.097,-79.2353,26.01,80,90,7.47,US,1611773835
24,Dingle,10.9995,122.6711,75.36,89,100,9.13,PH,1611773838
25,Cayenne,4.9333,-52.3333,82.4,74,75,5.75,GF,1611773839
26,Ponta do Sol,32.6667,-17.1,62.6,88,20,8.05,PT,1611773840
27,Rikitea,-23.1203,-134.9692,79.32,76,6,14.23,PF,1611773841
28,Bud,39.447,-86.1758,30.0,83,100,7.76,US,1611773842
29,Belz,47.6751,-3.168,52.0,100,100,16.89,FR,1611773843
30,Prachuap Khiri Khan,12.2167,99.75,69.62,83,0,1.95,TH,1611773844
31,Bitung,1.4451,125.1824,73.4,94,20,2.3,ID,1611773846
32,Saint Paul Harbor,57.79,-152.4072,28.4,86,90,2.15,US,1611773847
33,Härnösand,62.6323,17.9379,19.4,86,90,11.5,SE,1611773848
34,San Quintín,30.4833,-115.95,57.31,45,49,2.84,MX,1611773849
35,Mar del Plata,-38.0023,-57.5575,69.8,56,0,13.8,AR,1611773752
36,Severo-Kuril'sk,50.6789,156.125,25.68,94,100,9.37,RU,1611773852
37,Shingū,33.7333,135.9833,46.45,55,62,5.17,JP,1611773853
38,Kruisfontein,-34.0033,24.7314,66.0,87,97,4.0,ZA,1611773855
39,Ushuaia,-54.8,-68.3,44.6,70,40,19.57,AR,1611773830
40,Bluff,-46.6,168.3333,50.0,86,100,15.01,NZ,1611773857
41,Shabqadar,34.2139,71.5552,51.15,37,73,4.34,PK,1611773858
42,Qaanaaq,77.484,-69.3632,-15.05,64,0,7.67,GL,1611773860
43,Orlik,52.5178,99.825,-5.57,83,100,3.15,RU,1611773861
44,Nelson Bay,-32.7167,152.15,71.01,100,90,19.57,AU,1611773862
45,Punta Arenas,-53.15,-70.9167,50.0,50,75,26.46,CL,1611773577
46,Saldanha,-33.0117,17.9442,66.2,59,0,20.71,ZA,1611773867
47,Bredasdorp,-34.5322,20.0403,64.4,55,97,3.44,ZA,1611773605
48,Busselton,-33.65,115.3333,51.01,87,0,10.16,AU,1611773869
49,Kaitangata,-46.2817,169.8464,53.01,67,19,17.0,NZ,1611773870
50,Nānākuli,21.3906,-158.1547,73.4,73,1,5.75,US,1611773871
51,San Patricio,28.017,-97.5169,71.6,23,75,20.71,US,1611773872
52,Thompson,55.7435,-97.8558,-13.0,77,40,3.44,CA,1611773873
53,Vanimo,-2.6741,141.3028,76.98,86,100,6.58,PG,1611773875
54,Khatanga,71.9667,102.5,-29.25,80,0,7.43,RU,1611773876
55,Garoua,9.3,13.4,89.6,11,0,6.91,CM,1611773877
56,Mataura,-46.1927,168.8643,50.0,86,70,15.01,NZ,1611773878
57,Cherskiy,68.75,161.3,-23.13,85,100,3.65,RU,1611773879
58,Biltine,14.5333,20.9167,75.78,16,1,9.69,TD,1611773880
59,Vila Franca do Campo,37.7167,-25.4333,64.0,94,40,16.11,PT,1611773881
60,Hobart,-42.8794,147.3294,55.4,50,90,6.91,AU,1611773783
61,Albany,42.6001,-73.9662,30.99,63,91,14.0,US,1611773832
62,Kastamonu Province,41.5,33.6667,39.7,83,100,6.87,TR,1611773886
63,Tasiilaq,65.6145,-37.6368,16.7,88,100,10.29,GL,1611773887
64,Sørland,67.667,12.6934,33.8,75,75,17.27,NO,1611773888
65,Lebu,-37.6167,-73.65,61.43,66,100,10.07,CL,1611773889
66,Hermanus,-34.4187,19.2345,64.99,72,32,7.92,ZA,1611773879
67,Warah,27.4481,67.7978,55.58,32,0,6.73,PK,1611773891
68,Ushibukamachi,32.1906,130.0228,48.49,68,0,6.04,JP,1611773892
69,Hay River,60.8156,-115.7999,-11.2,70,100,9.22,CA,1611773894
70,Flagstaff,35.1981,-111.6513,34.0,68,1,3.44,US,1611773634
71,Kapaa,22.0752,-159.319,75.0,88,90,13.8,US,1611773896
72,Natchez,31.5604,-91.4032,53.6,71,1,8.05,US,1611773897
73,Leningradskiy,69.3833,178.4167,-18.2,87,100,3.53,RU,1611773898
74,Atuona,-9.8,-139.0333,78.22,77,1,16.67,PF,1611773899
75,Yulara,-25.2406,130.9889,77.0,73,75,11.5,AU,1611773900
76,Tuktoyaktuk,69.4541,-133.0374,-18.4,76,40,5.75,CA,1611773887
77,Lüderitz,-26.6481,15.1594,68.74,58,0,31.27,NA,1611773903
78,Ahipara,-35.1667,173.1667,64.94,89,55,4.07,NZ,1611773905
79,Dzaoudzi,-12.7887,45.2699,80.6,83,0,4.61,YT,1611773907
80,Arman',59.7,150.1667,-15.52,79,0,9.35,RU,1611773908
81,Puerto Ayora,-0.7393,-90.3518,84.2,70,75,13.8,EC,1611773909
82,Mina,26.0011,-100.5299,62.01,30,99,3.0,MX,1611773910
83,George Town,5.4112,100.3354,79.0,94,40,4.61,MY,1611773911
84,La Ronge,55.1001,-105.2842,-4.0,71,27,8.05,CA,1611773913
85,Vila Velha,-20.3297,-40.2925,88.0,51,20,16.11,BR,1611773901
86,Iqaluit,63.7506,-68.5145,-11.2,77,1,2.3,CA,1611773896
87,Avarua,-21.2078,-159.775,84.2,70,100,18.41,CK,1611773881
88,Litovko,49.2361,135.1742,-8.18,87,0,5.55,RU,1611773917
89,Aswān,24.0934,32.907,63.82,25,0,10.45,EG,1611773918
90,Norman Wells,65.282,-126.8329,-32.8,68,40,3.44,CA,1611773919
91,Cidreira,-30.1811,-50.2056,78.28,81,100,11.88,BR,1611773920
92,Alappuzha,9.49,76.3264,75.0,78,100,5.21,IN,1611773922
93,Narasannapeta,18.4167,84.05,71.64,86,20,3.31,IN,1611773923
94,Mahébourg,-20.4081,57.7,77.0,83,20,6.91,MU,1611773924
95,Nouadhibou,20.931,-17.0347,71.6,68,0,12.66,MR,1611773925
96,Saint-Philippe,-21.3585,55.7679,78.8,69,38,4.61,RE,1611773909
97,Bethel,41.3712,-73.414,33.01,79,98,9.06,US,1611773927
98,Lagoa,39.05,-27.9833,61.11,82,100,30.94,PT,1611773928
99,Hong Kong,22.2855,114.1577,64.0,85,5,9.55,HK,1611773860
100,Laas,46.6166,10.7002,33.01,80,40,1.14,IT,1611773930
101,Korla,41.7597,86.1469,22.03,82,0,3.58,CN,1611773932
102,Strängnäs,59.3774,17.0312,19.0,86,0,2.3,SE,1611773933
103,Guerrero Negro,27.9769,-114.0611,61.65,40,100,6.26,MX,1611773934
104,Kununurra,-15.7667,128.7333,77.0,100,90,3.44,AU,1611773935
105,Young,-32.6833,-57.6333,93.0,44,86,1.99,UY,1611773936
106,Kavieng,-2.5744,150.7967,83.1,73,100,9.73,PG,1611773937
107,Elizabeth City,36.2946,-76.2511,46.4,76,75,9.22,US,1611773938
108,Rostov-on-Don,47.2364,39.7139,37.4,93,75,20.13,RU,1611773857
109,Barrow,71.2906,-156.7887,-13.0,84,90,4.61,US,1611773942
110,Tadine,-21.55,167.8833,77.56,85,100,16.22,NC,1611773943
111,Dwārka,22.2394,68.9678,67.24,46,0,9.95,IN,1611773944
112,Henties Bay,-22.116,14.2845,68.0,82,22,6.04,NA,1611773945
113,Laguna,38.421,-121.4238,51.01,76,90,27.63,US,1611773946
114,Alyangula,-13.8483,136.4192,82.4,83,90,8.05,AU,1611773948
115,Talcahuano,-36.7167,-73.1167,68.0,52,0,20.71,CL,1611773949
116,Vanavara,60.34,102.2797,-20.6,84,100,10.87,RU,1611773951
117,Caluquembe,-13.7833,14.6833,64.62,63,98,9.75,AO,1611773952
118,Aklavik,68.2191,-135.0107,-13.0,77,100,4.61,CA,1611773953
119,East London,-33.0153,27.9116,68.0,88,75,5.75,ZA,1611773955
120,Sabha,27.0377,14.4283,50.2,45,0,5.66,LY,1611773956
121,Pedernales,18.0384,-71.744,83.97,51,0,1.28,DO,1611773958
122,Grajewo,53.6473,22.4554,27.64,97,92,7.23,PL,1611773959
123,Nikolskoye,59.7035,30.7861,33.8,93,75,6.71,RU,1611773929
124,Baykit,61.67,96.37,-28.43,79,100,4.52,RU,1611773919
125,Katsuura,35.1333,140.3,45.0,57,75,10.36,JP,1611773964
126,Meadow Lake,34.8014,-106.5436,36.0,59,1,3.71,US,1611773965
127,Tual,-5.6667,132.75,83.48,78,100,19.84,ID,1611773966
128,Yellowknife,62.456,-114.3525,-9.99,77,90,4.61,CA,1611773909
129,Faya,18.3851,42.4509,60.8,58,0,5.75,SA,1611773969
130,Chui,-33.6971,-53.4616,80.85,65,8,11.25,UY,1611773971
131,Puerto Escondido,15.85,-97.0667,85.51,45,44,6.96,MX,1611773972
132,Castro,-24.7911,-50.0119,73.51,86,100,9.13,BR,1611773916
133,The Valley,18.217,-63.0578,84.2,65,20,14.97,AI,1611773720
134,Tiksi,71.6872,128.8694,-38.51,83,89,2.73,RU,1611773976
135,Lorengau,-2.0226,147.2712,82.09,78,100,7.56,PG,1611773977
136,Esperance,-33.8667,121.9,62.6,88,90,5.75,AU,1611773978
137,Kingman,35.1894,-114.053,37.4,65,1,11.5,US,1611773885
138,Kalmunai,7.4167,81.8167,75.87,77,82,8.81,LK,1611773773
139,Codrington,-38.2667,141.9667,61.72,75,99,12.39,AU,1611773936
140,Río Gallegos,-51.6226,-69.2181,53.6,35,40,26.46,AR,1611773913
141,Winslow,35.0242,-110.6974,24.8,68,1,10.36,US,1611773984
142,Belmonte,-15.8631,-38.8828,82.4,61,40,10.36,BR,1611773905
143,Khandyga,62.6667,135.6,-52.78,76,70,0.87,RU,1611773986
144,Malakal,9.5334,31.6605,85.08,21,0,6.26,SS,1611773987
145,Morgan City,29.6994,-91.2068,66.2,77,75,17.27,US,1611773922
146,Port Hedland,-20.3167,118.5667,80.6,74,0,8.05,AU,1611773877
147,Nālūt,30.3333,10.85,50.65,44,0,7.7,LY,1611773990
148,Santa Maria,-29.6842,-53.8069,72.97,91,100,5.44,BR,1611773755
149,Baghdad,33.3406,44.4009,60.8,33,40,8.05,IQ,1611773980
150,Faanui,-16.4833,-151.75,80.83,73,1,15.84,PF,1611773994
151,Bilibino,68.0546,166.4372,-9.67,84,100,6.24,RU,1611773995
152,New Norfolk,-42.7826,147.0587,54.0,58,100,0.25,AU,1611773996
153,Guelph,43.5501,-80.2497,24.01,68,75,18.41,CA,1611773845
154,Naze,28.3667,129.4833,56.53,74,42,10.94,JP,1611773928
155,Kangaatsiaq,68.3065,-53.4641,5.38,94,46,6.6,GL,1611773999
156,Tobermory,45.2501,-81.6665,19.4,73,99,11.5,CA,1611774001
157,Lodwar,3.1191,35.5973,84.27,35,0,14.79,KE,1611774002
158,Bambous Virieux,-20.3428,57.7575,78.01,83,20,6.91,MU,1611773709
159,Rawson,-43.3002,-65.1023,69.85,32,100,9.69,AR,1611773918
160,Kutum,14.2,24.6667,69.24,22,100,13.09,SD,1611774006
161,Poya,-21.35,165.15,75.31,82,94,2.39,NC,1611774008
162,Alice Springs,-23.7,133.8833,75.2,83,6,2.3,AU,1611773817
163,Ribeira Grande,38.5167,-28.7,59.0,88,75,25.32,PT,1611774012
164,Vostok,46.4856,135.8833,-12.03,90,83,3.49,RU,1611774013
165,Lewistown,40.5992,-77.5714,35.01,69,75,11.5,US,1611774015
166,Lugovoy,42.9472,72.7644,15.87,85,0,3.11,KZ,1611774016
167,Worland,44.0169,-107.9554,26.01,73,1,9.28,US,1611774017
168,Hasaki,35.7333,140.8333,37.4,75,75,9.22,JP,1611773919
169,Brusque,-27.0981,-48.9175,95.0,89,40,11.5,BR,1611774015
170,Kemijärvi,66.7131,27.4306,12.83,95,100,9.42,FI,1611774021
171,Susanville,40.4163,-120.653,37.99,65,1,17.27,US,1611773834
172,Liverpool,53.4106,-2.9779,46.99,93,20,6.91,GB,1611774023
173,Calama,-22.4667,-68.9333,77.0,13,0,17.27,CL,1611774015
174,Port Shepstone,-30.7414,30.455,71.91,94,100,14.12,ZA,1611774025
175,Noumea,-22.2763,166.4572,80.01,83,90,2.3,NC,1611774004
176,Sur,22.5667,59.5289,67.75,72,0,9.78,OM,1611773882
177,Bengkulu,-3.8004,102.2655,74.62,93,100,8.57,ID,1611774029
178,Bushehr,28.9684,50.8385,60.8,67,0,5.23,IR,1611774030
179,Araouane,18.9048,-3.5265,74.08,17,0,8.5,ML,1611774031
180,Sarkand,45.41,79.9186,14.97,77,0,2.3,KZ,1611774033
181,Butaritari,3.0707,172.7902,80.24,80,100,12.01,KI,1611774034
182,Basco,20.4487,121.9702,73.11,78,6,18.88,PH,1611773934
183,Deputatsky,69.3,139.9,-24.25,88,100,2.26,RU,1611774037
184,Buluang,13.3068,123.3425,74.01,91,89,4.0,PH,1611774038
185,Inyonga,-6.7167,32.0667,65.77,91,46,1.43,TZ,1611774039
186,General Pico,-35.6566,-63.7568,99.09,10,0,9.71,AR,1611774040
187,Moses Lake,47.1301,-119.2781,37.4,87,90,6.91,US,1611774042
188,Quatre Cocos,-20.2078,57.7625,78.01,83,20,4.61,MU,1611774043
189,Sechura,-5.5569,-80.8222,83.68,49,56,11.83,PE,1611774044
190,Fairbanks,64.8378,-147.7164,-5.01,69,40,1.83,US,1611774046
191,Nikolayevsk-on-Amur,53.1406,140.73,-1.41,90,100,4.74,RU,1611774047
192,Kahului,20.8947,-156.47,75.2,69,40,19.57,US,1611774048
193,Mossamedes,-15.1961,12.1522,75.61,77,34,10.78,AO,1611774050
194,São Filipe,14.8961,-24.4956,77.09,63,0,4.5,CV,1611773947
195,Yangambi,0.8102,24.4336,70.95,91,56,1.61,CD,1611774052
196,Flinders,-34.5833,150.8552,68.0,80,100,3.0,AU,1611773882
197,Oddur,4.1213,43.8894,79.25,39,0,10.6,SO,1611774054
198,Opuwo,-18.0607,13.84,74.23,59,100,9.31,NA,1611774057
199,Tautira,-17.7333,-149.15,82.4,69,75,1.14,PF,1611774059
200,Cap-Haïtien,19.7578,-72.2042,77.43,75,0,14.85,HT,1611773837
201,Nambucca Heads,-30.65,153.0,72.0,94,90,9.22,AU,1611774061
202,Pojejena,44.7742,21.5792,30.0,85,1,5.01,RO,1611774063
203,Qasigiannguit,68.8193,-51.1922,10.4,56,20,1.14,GL,1611774066
204,Santa Isabel Rio Negro,-0.4139,-65.0192,90.75,48,100,4.03,BR,1611774067
205,Kargasok,59.0556,80.8572,-25.91,85,89,6.29,RU,1611774068
206,Belaya Gora,68.5333,146.4167,-23.96,87,100,2.71,RU,1611773928
207,Narsaq,60.9167,-46.05,37.4,32,75,37.98,GL,1611773917
208,Sitka,57.0531,-135.33,26.6,43,1,4.61,US,1611774073
209,Bulungu,-4.55,18.6,70.43,97,100,5.06,CD,1611774074
210,Oktyabr'skiy,54.4815,53.471,21.74,95,100,13.11,RU,1611774075
211,Māngrol,21.1167,70.1167,63.05,36,19,12.71,IN,1611774076
212,Hithadhoo,-0.6,73.0833,81.01,79,94,14.47,MV,1611774077
213,Chokurdakh,70.6333,147.9167,-17.23,87,100,14.07,RU,1611774079
214,Todos Santos,23.45,-110.2167,69.01,52,100,5.99,MX,1611774080
215,Lompoc,34.6391,-120.4579,50.0,87,90,13.8,US,1611774081
216,Paris,48.8534,2.3488,46.99,100,90,9.22,FR,1611773471
217,Verkh-Usugli,52.7,115.1667,-20.07,84,64,3.29,RU,1611774083
218,Nāgar Karnūl,16.4821,78.3247,68.29,72,100,6.91,IN,1611774081
219,Ostrovnoy,68.0531,39.5131,11.23,95,100,22.53,RU,1611773908
220,Kiryat Gat,31.61,34.7642,57.99,56,26,7.0,IL,1611773940
221,Novopokrovka,49.8425,36.5477,39.2,87,75,13.42,UA,1611774090
222,Sawtell,-30.3833,153.1,72.0,94,90,9.22,AU,1611774091
223,Bismarck,46.8083,-100.7837,12.2,79,90,10.36,US,1611774092
224,Port Elizabeth,-33.918,25.5701,66.2,94,75,6.91,ZA,1611774093
225,Gamba,-2.65,10.0,77.36,87,100,3.83,GA,1611773936
226,Bentiu,9.2333,29.8333,84.18,24,93,3.74,SS,1611774097
227,Havøysund,70.9963,24.6622,23.0,68,40,17.27,NO,1611774098
228,Portland,45.5234,-122.6762,42.01,87,75,4.61,US,1611773752
229,Sardulgarh,29.7,75.25,48.51,42,0,4.25,IN,1611774100
230,Sydney Mines,46.2367,-60.2177,34.0,86,75,16.11,CA,1611774101
231,Matagami,49.7502,-77.6328,5.0,92,90,10.36,CA,1611774102
232,Verkhoyansk,67.5447,133.385,-48.46,73,85,0.81,RU,1611773820
233,Kodinsk,58.6881,99.1844,-7.33,88,100,10.4,RU,1611774104
234,Isangel,-19.55,169.2667,80.06,83,100,16.51,VU,1611773922
235,Bubaque,11.2833,-15.8333,78.42,66,0,15.41,GW,1611774107
236,Rincon,32.296,-81.2354,55.99,88,90,8.05,US,1611773831
237,Rakkestad,59.4251,11.3454,19.0,93,1,4.16,NO,1611774110
238,Spasskoye,44.6108,132.7969,-3.03,84,6,3.96,RU,1611774111
239,Kyra,49.5776,111.9753,-21.05,78,0,4.32,RU,1611774112
240,Aitape,-3.1374,142.3475,77.5,84,100,5.06,PG,1611774114
241,Dikson,73.5069,80.5464,-21.71,86,100,8.61,RU,1611774115
242,Nanortalik,60.1432,-45.2371,25.09,91,100,4.65,GL,1611774116
243,Erenhot,43.6475,111.9767,-10.86,84,0,12.33,CN,1611774118
244,Ust-Tsilma,65.441,52.1498,2.19,93,100,6.11,RU,1611774119
245,Paamiut,61.994,-49.6678,25.61,85,100,6.98,GL,1611774120
246,São José da Coroa Grande,-8.8978,-35.1478,80.28,76,35,10.76,BR,1611774123
247,Geraldton,-28.7667,114.6,66.2,68,0,13.8,AU,1611773917
248,Richards Bay,-28.783,32.0377,74.52,96,100,8.3,ZA,1611774126
249,Santa Barbara,34.7333,-120.0343,48.99,93,90,21.85,US,1611774058
250,Mier,26.4333,-99.15,73.99,14,1,12.66,MX,1611774128
251,Natal,-5.795,-35.2094,87.8,51,20,17.27,BR,1611774129
252,Huarmey,-10.0681,-78.1522,76.19,67,100,11.43,PE,1611774130
253,Berlevåg,70.8578,29.0864,24.8,68,75,26.46,NO,1611774132
254,Salalah,17.0151,54.0924,75.2,69,0,3.44,OM,1611773908
255,Vredendal,-31.6683,18.5012,67.5,50,0,20.51,ZA,1611774134
256,Axum,14.1245,38.7244,51.44,36,0,2.86,ET,1611774135
257,Fengzhen,40.4394,113.1536,5.34,62,0,24.4,CN,1611774136
258,Clyde River,70.4692,-68.5914,-7.6,77,40,2.3,CA,1611774140
259,Dunedin,-45.8742,170.5036,55.99,57,1,5.99,NZ,1611773946
260,Yarkovo,57.4028,67.0786,18.48,98,100,5.41,RU,1611774142
261,Krasnoufimsk,56.6059,57.7669,22.51,95,100,9.37,RU,1611774143
262,Vaitape,-16.5167,-151.75,80.91,73,91,14.99,PF,1611774144
263,Arraial do Cabo,-22.9661,-42.0278,89.6,51,0,27.63,BR,1611773876
264,Ilulissat,69.2167,-51.1,10.4,56,20,1.14,GL,1611774148
265,Port Blair,11.6667,92.75,79.12,80,65,11.16,IN,1611774149
266,Hualmay,-11.0964,-77.6139,76.91,64,65,11.25,PE,1611774150
267,Craigieburn,-37.6,144.95,60.8,88,75,8.05,AU,1611774151
268,Tuatapere,-46.1333,167.6833,50.0,86,100,13.0,NZ,1611774152
269,Saint George,37.1041,-113.5841,39.99,56,90,16.11,US,1611774153
270,Kisumu,-0.1022,34.7617,73.4,68,0,3.44,KE,1611774156
271,Port Hardy,50.6996,-127.4199,39.2,87,90,6.91,CA,1611774045
272,Bongandanga,1.5,21.05,71.73,96,100,0.56,CD,1611774158
273,Ropar,30.9664,76.5331,48.42,55,0,2.51,IN,1611774159
274,Ndago,-4.6,34.35,67.1,73,72,3.13,TZ,1611774160
275,Zaraza,9.3503,-65.3245,91.71,37,100,6.93,VE,1611774162
276,College,64.8569,-147.8028,-23.8,69,40,2.21,US,1611774163
277,Maniitsoq,65.4167,-52.9,19.49,75,0,7.99,GL,1611774164
278,Walvis Bay,-22.9575,14.5053,69.8,68,0,3.44,NA,1611774165
279,Maceió,-9.6658,-35.7353,77.0,83,75,12.66,BR,1611773958
280,Bandarbeyla,9.4942,50.8122,73.98,73,0,18.59,SO,1611774167
281,Palmer,42.1584,-72.3287,34.0,87,93,5.08,US,1611773896
282,Livingston,55.9029,-3.5226,39.2,93,90,8.05,GB,1611774169
283,Harper,4.375,-7.7169,79.34,81,5,5.93,LR,1611774171
284,Olafsvik,64.8945,-23.7142,30.42,88,100,16.73,IS,1611774172
285,Māndal,25.45,74.5667,51.3,45,0,2.73,IN,1611774173
286,Gizo Government Station,-8.103,156.8419,83.59,78,74,11.3,SB,1611774174
287,Loandjili,-4.7561,11.8578,82.4,83,20,5.75,CG,1611774175
288,Pacific Grove,36.6177,-121.9166,53.6,76,90,11.36,US,1611774176
289,São João del Rei,-21.1356,-44.2617,82.4,42,75,3.44,BR,1611774103
290,Inhambane,-23.865,35.3833,84.2,79,20,6.91,MZ,1611774179
291,Coruche,38.9595,-8.5252,59.0,77,100,2.04,PT,1611774180
292,Te Anau,-45.4167,167.7167,46.6,75,89,5.66,NZ,1611774181
293,Mana,5.6592,-53.7767,80.83,70,1,11.63,GF,1611774183
294,Taoudenni,22.6783,-3.9836,74.39,20,0,12.1,ML,1611774184
295,Weiser,44.251,-116.9693,39.99,70,90,29.93,US,1611774185
296,Hamilton,39.1834,-84.5333,34.0,69,90,6.91,US,1611774030
297,Nouakchott,18.0858,-15.9785,89.6,4,0,11.5,MR,1611773984
298,Constitución,-35.3333,-72.4167,67.03,48,92,20.71,CL,1611774189
299,San Ignacio,17.1561,-89.0714,86.0,66,20,6.91,BZ,1611774191
300,Avera,33.194,-82.5271,59.0,77,90,8.05,US,1611773926
301,Prince Rupert,54.3161,-130.3201,33.8,80,1,6.91,CA,1611774077
302,High Prairie,55.4334,-116.4858,-2.2,78,100,8.05,CA,1611774039
303,Beloha,-25.1667,45.05,77.67,77,15,14.2,MG,1611774195
304,Malbork,54.0359,19.0266,30.99,87,99,3.0,PL,1611774196
305,Loreto,22.2667,-101.9667,73.99,20,26,9.66,MX,1611774197
306,Mbandaka,0.0487,18.2603,73.33,91,100,1.12,CD,1611774198
307,Longyearbyen,78.2186,15.6401,8.6,61,20,17.27,SJ,1611774191
308,Khovd,48.0056,91.6419,1.78,80,31,1.3,MN,1611774201
309,Kita,13.0349,-9.4895,83.05,12,0,4.65,ML,1611774202
310,Nhulunbuy,-12.2333,136.7667,78.8,89,58,5.75,AU,1611774203
311,Ponta Delgada,37.7333,-25.6667,64.0,94,40,16.11,PT,1611773961
312,Ekhabi,53.5102,142.9671,11.14,96,100,14.65,RU,1611774208
313,Mount Isa,-20.7333,139.5,80.6,69,0,12.66,AU,1611774210
314,Mandalgovi,45.7625,106.2708,-10.61,79,0,5.64,MN,1611774211
315,Muisne,0.6,-80.0333,80.6,89,40,9.22,EC,1611774212
316,Zhengjiatun,43.5064,123.5064,3.42,88,100,11.79,CN,1611774213
317,Saint-François,46.4154,3.9054,46.4,93,90,3.44,FR,1611774214
318,Noyabrsk,63.1994,75.4507,-39.12,80,37,6.22,RU,1611774180
319,Raja,8.4596,25.678,78.24,27,85,3.4,SS,1611774216
320,Marabu,4.4148,114.0089,75.2,100,40,1.14,MY,1611774177
321,Ishigaki,24.3448,124.1572,64.92,78,89,17.05,JP,1611774219
322,Miraflores,19.2167,-98.8083,71.6,18,40,8.05,MX,1611774220
323,Ucluelet,48.9329,-125.5528,39.0,87,90,4.61,CA,1611774174
324,Abu Dhabi,24.4667,54.3667,68.0,73,0,3.44,AE,1611774187
325,Najrān,17.4924,44.1277,62.6,31,0,6.91,SA,1611774223
326,Iracoubo,5.4802,-53.2011,80.19,72,2,11.99,GF,1611774072
327,Vilhena,-12.7406,-60.1458,82.4,65,75,11.5,BR,1611774225
328,Owando,-0.4819,15.8999,71.74,92,99,4.85,CG,1611774227
329,Brigham City,41.5102,-112.0155,33.01,64,90,23.02,US,1611774228
330,Garoowe,8.4054,48.4845,69.94,48,0,14.45,SO,1611774229
331,Pisco,-13.7,-76.2167,75.2,64,0,8.05,PE,1611774230
332,Sokodé,8.9833,1.1333,91.4,24,0,1.97,TG,1611774231
333,Antofagasta,-23.65,-70.4,71.6,64,20,17.27,CL,1611774134
334,Camacha,33.0833,-16.3333,62.6,94,40,12.66,PT,1611774233
335,Port-Cartier,50.0334,-66.8654,27.0,50,24,3.44,CA,1611774236
336,Sibolga,1.7427,98.7792,75.4,82,100,4.09,ID,1611774237
337,Srednekolymsk,67.45,153.6833,-25.83,85,100,10.85,RU,1611774238
338,Verkhnyaya Inta,65.9811,60.3094,1.29,93,100,14.45,RU,1611774239
339,Bereda,43.2686,-7.5406,57.99,91,100,8.99,ES,1611774240
340,Qinhuangdao,39.9317,119.5883,26.24,76,100,12.46,CN,1611774241
341,Gushikawa,26.3544,127.8686,62.6,67,20,16.11,JP,1611774242
342,Cabo San Lucas,22.8909,-109.9124,73.99,40,100,5.99,MX,1611774000
343,Xinzhou,38.4092,112.7333,18.28,58,0,9.4,CN,1611774245
344,Tsabong,-26.0217,22.401,81.27,22,94,8.81,BW,1611774246
345,Ondjiva,-17.0667,15.7333,74.23,66,100,6.42,AO,1611774247
346,Bolligen,46.9751,7.497,37.0,100,90,4.61,CH,1611774248
347,Los Llanos de Aridane,28.6585,-17.9182,68.0,73,75,9.22,ES,1611774250
348,Trelew,-43.249,-65.3051,72.63,25,100,18.01,AR,1611774251
349,Ukiah,39.1502,-123.2078,44.6,87,90,7.54,US,1611774253
350,São Domingos,-13.3983,-46.3183,81.99,59,91,4.88,BR,1611774254
351,Moyale,3.5167,39.0584,74.61,36,0,12.1,KE,1611774131
352,Launceston,-41.45,147.1667,51.01,71,99,13.8,AU,1611774257
353,Crixás,-14.5489,-49.9692,85.14,64,88,4.21,BR,1611774258
354,Esim,4.8699,-2.2405,79.45,84,45,9.42,GH,1611774260
355,Urdoma,61.7533,48.5442,31.3,98,97,8.3,RU,1611774261
356,Örnsköldsvik,63.2909,18.7153,17.6,93,90,5.75,SE,1611774262
357,Batagay,67.6333,134.6333,-49.16,74,53,0.49,RU,1611774263
358,Okhotsk,59.3833,143.3,-13.0,79,60,11.34,RU,1611774264
359,Tumut,-35.3,148.2167,68.0,64,22,17.27,AU,1611774265
360,Muros,42.7762,-9.0603,57.99,92,100,7.0,ES,1611774266
361,Port Hueneme,34.1478,-119.1951,57.2,66,90,14.97,US,1611774268
362,Varhaug,58.6147,5.6457,24.01,93,20,7.23,NO,1611774270
363,Batetskiy,58.6461,30.3027,29.03,98,93,2.84,RU,1611774271
364,Dongling,41.8144,123.5758,21.2,93,90,4.47,CN,1611774272
365,Finnsnes,69.2296,17.9811,23.0,58,75,19.57,NO,1611774273
366,Ust-Maya,60.4167,134.5333,-42.97,79,100,1.86,RU,1611774274
367,Ozernovskiy,51.5,156.5167,20.55,85,100,5.19,RU,1611774275
368,Emba,48.8264,58.1442,15.78,93,0,12.77,KZ,1611774277
369,Belinsky,52.9647,43.4165,32.16,98,100,15.21,RU,1611774278
370,Christchurch,-43.5333,172.6333,62.01,82,40,4.61,NZ,1611774279
371,Brigantine,39.4101,-74.3646,39.2,56,90,18.41,US,1611774280
372,Hokitika,-42.7167,170.9667,57.79,82,14,12.68,NZ,1611774281
373,Vila,42.0304,-8.1588,52.0,96,100,5.32,PT,1611774282
374,Rongcheng,30.634,117.8517,44.26,90,52,2.1,CN,1611774283
375,Andreyevo,55.9465,41.1505,30.88,99,100,4.68,RU,1611774285
376,Umba,66.6871,34.3429,8.6,95,100,14.07,RU,1611774286
377,Malatya Province,38.5,38.0,39.2,65,75,5.75,TR,1611774121
378,Provideniya,64.3833,-173.3,-0.56,88,95,24.29,RU,1611774288
379,Fare,-16.7,-151.0167,81.0,73,80,15.37,PF,1611774289
380,Ati,13.2154,18.3353,79.16,14,15,12.57,TD,1611774290
381,Puerto del Rosario,28.5004,-13.8627,66.2,88,0,6.91,ES,1611774291
382,Namatanai,-3.6667,152.4333,80.73,81,73,8.81,PG,1611774292
383,Rio Grande,-32.035,-52.0986,73.4,94,75,11.5,BR,1611774181
384,Kumul,42.8,93.45,19.63,82,100,1.39,CN,1611774295
385,Skellefteå,64.7507,20.9528,19.4,86,90,8.05,SE,1611774296
386,Soure,-0.7167,-48.5233,83.25,74,1,11.23,BR,1611774299
387,Souillac,-20.5167,57.5167,75.2,83,20,4.61,MU,1611774300
388,Benguela,-12.5763,13.4055,77.77,75,100,6.91,AO,1611774301
389,Flin Flon,54.7682,-101.865,-14.8,84,40,4.59,CA,1611774012
390,Victoria Falls,-17.9235,25.843,69.49,92,100,2.13,ZW,1611774028
391,Aksu,41.1231,80.2644,18.28,87,0,0.89,CN,1611774305
392,Springdale,36.1867,-94.1288,32.0,93,90,11.5,US,1611774306
393,Auki,-8.7676,160.7034,80.42,84,100,11.97,SB,1611774307
394,Nome,64.5011,-165.4064,12.2,73,1,4.61,US,1611774309
395,Baculin,7.4525,126.5842,76.68,79,100,6.26,PH,1611774310
396,Krasnosel'kup,65.7,82.4667,-38.18,82,29,5.19,RU,1611774311
397,Anadyr,64.75,177.4833,10.4,85,75,44.74,RU,1611774312
398,Shishou,29.7226,112.419,40.46,81,0,4.5,CN,1611774313
399,Port Lincoln,-34.7333,135.8667,63.95,82,36,12.08,AU,1611774314
400,Glendive,47.1053,-104.7125,25.0,73,90,8.05,US,1611774315
401,Boa Vista,2.8197,-60.6733,89.6,45,75,11.5,BR,1611774041
402,Tommot,58.9564,126.2925,-37.01,78,100,3.15,RU,1611774319
403,Sakakah,29.9697,40.2064,64.4,34,0,8.05,SA,1611774287
404,Waingapu,-9.6567,120.2641,77.83,83,95,9.69,ID,1611774321
405,Marsabit,2.3284,37.9899,71.35,50,0,10.29,KE,1611774322
406,Chicama,-7.8447,-79.1469,71.6,78,20,11.5,PE,1611774323
407,Mackay,-21.15,149.2,77.0,88,40,5.75,AU,1611774192
408,Taltal,-25.4,-70.4833,72.88,57,22,9.42,CL,1611774063
409,Tripoli,32.8752,13.1875,56.55,58,100,12.01,LY,1611774081
410,Wawa,9.9022,4.4192,84.42,14,1,3.65,NG,1611774328
411,Birao,10.2849,22.7882,80.94,16,96,5.82,CF,1611774329
412,Anloga,5.7947,0.8973,84.2,79,59,11.5,GH,1611774330
413,Gravdal,68.1214,13.5031,26.6,74,20,6.91,NO,1611774331
414,Chernyshevskiy,63.0128,112.4714,-46.37,80,44,1.12,RU,1611774333
415,Kampot,10.6167,104.1833,73.4,94,0,2.3,KH,1611774335
416,Ulaanbaatar,47.9077,106.8832,-36.4,67,0,4.47,MN,1611774337
417,Puri,19.8,85.85,66.2,77,0,3.18,IN,1611774338
418,Naliya,23.2667,68.8333,61.7,33,0,9.6,IN,1611774339
419,Sungai Penuh,-2.0833,101.3833,64.36,98,100,1.28,ID,1611774340
420,Kaffrine,14.1059,-15.5508,100.4,8,0,7.02,SN,1611774341
421,Ulladulla,-35.35,150.4667,66.0,94,90,5.75,AU,1611774342
422,Forest Hill,32.6721,-97.2692,51.01,53,1,18.41,US,1611774344
423,Pemangkat,1.1667,108.9667,77.22,86,100,7.23,ID,1611774345
424,Macapá,0.0389,-51.0664,78.8,94,75,10.36,BR,1611774346
425,Baní,18.2833,-70.3333,89.6,58,40,6.91,DO,1611774347
426,Mulegé,26.8833,-111.9833,61.84,46,100,13.44,MX,1611774348
427,Bestöbe,52.4994,73.0975,18.09,96,10,12.68,KZ,1611774349
428,Bukoba,-1.3317,31.8122,69.8,94,0,4.12,TZ,1611774350
429,Arrondissement de Perpignan,42.75,2.75,60.8,72,75,5.75,FR,1611774352
430,Kanigoro,-8.13,112.219,72.99,90,100,1.74,ID,1611774354
431,Ténenkou,14.4572,-4.9169,78.49,12,0,10.27,ML,1611774355
432,Teya,60.3778,92.6267,-27.53,81,100,2.13,RU,1611774356
433,Rodrigues Alves,-7.738,-72.6509,86.0,74,75,5.75,BR,1611774357
434,Bariloche,-41.1456,-71.3082,59.0,44,40,32.21,AR,1611774161
435,Tianguá,-3.7322,-40.9917,81.88,54,4,4.38,BR,1611774359
436,São Raimundo Nonato,-9.0153,-42.6994,92.7,31,98,6.08,BR,1611774361
437,Misratah,32.3754,15.0925,55.8,66,33,14.14,LY,1611774362
438,Sebrovo,50.0981,43.2976,34.0,94,100,7.0,RU,1611774363
439,Quepos,9.4236,-84.1652,80.6,53,40,17.27,CR,1611774364
440,Padang,-0.9492,100.3543,73.4,94,90,2.3,ID,1611774338
441,West Bay,19.3667,-81.4167,86.0,70,20,10.36,KY,1611774366
442,Grand-Santi,4.25,-54.3833,81.32,84,81,3.74,GF,1611774367
443,Mayumba,-3.432,10.6554,78.75,85,100,5.12,GA,1611774369
444,Três Lagoas,-20.7511,-51.6783,86.67,62,100,6.4,BR,1611774103
445,Shubarkuduk,49.1447,56.4872,14.59,93,0,13.98,KZ,1611774371
446,Galesong,-5.3166,119.3661,73.4,100,40,6.91,ID,1611774372
447,Buala,-8.145,159.5921,80.85,81,79,11.39,SB,1611774373
448,Nehe,48.4833,124.8333,-12.95,85,27,5.77,CN,1611774312
449,Soyo,-6.1349,12.3689,79.27,83,100,1.57,AO,1611774252
450,Alindao,5.0267,21.2088,81.18,30,100,1.9,CF,1611774377
451,Mayor Pablo Lagerenza,-19.9309,-60.7718,89.96,50,97,6.53,PY,1611774378
452,Macusani,-14.0833,-70.4333,50.41,60,71,1.63,PE,1611774379
453,Kailua,21.4022,-157.7394,77.0,69,90,10.36,US,1611774380
454,Krasnoarmiys'k,48.282,37.1758,39.42,77,100,17.0,UA,1611774381
455,Ji’an,27.1172,114.9793,48.09,83,100,9.69,CN,1611774383
456,Strathpeffer,57.588,-4.5382,30.99,100,40,2.51,GB,1611774384
457,Topolobampo,25.6,-109.05,70.0,50,100,8.99,MX,1611774368
458,Freeport,40.6576,-73.5832,37.99,65,90,10.36,US,1611774122
459,Arcata,40.8665,-124.0828,46.0,81,90,8.05,US,1611774387
460,Valdivia,-39.8142,-73.2459,64.4,68,75,10.36,CL,1611774378
461,Nemuro,43.3236,145.575,23.32,90,0,17.52,JP,1611774390
462,Bathsheba,13.2167,-59.5167,82.4,65,75,18.41,BB,1611774391
463,Morgantown,39.6295,-79.9559,30.2,69,90,4.61,US,1611774239
464,Waipawa,-41.4122,175.5153,64.4,82,90,21.85,NZ,1611774394
465,Anchorage,61.2181,-149.9003,10.0,78,40,4.61,US,1611774339
466,El Alto,-4.2714,-81.2147,87.8,51,0,18.41,PE,1611774396
467,Urazovo,50.0836,38.0395,37.94,89,100,14.36,RU,1611774397
468,Kyrenia,35.3417,33.3167,51.8,87,75,5.75,CY,1611774398
469,Lavrentiya,65.5833,-171.0,-2.29,88,97,14.9,RU,1611774399
470,St. George's,12.0564,-61.7485,86.0,58,40,19.57,GD,1611774402
471,Santiago,-33.4569,-70.6483,88.0,28,20,10.36,CL,1611774362
472,Suntar,62.1444,117.6319,-45.98,78,98,1.81,RU,1611774404
473,Choix,26.7092,-108.3219,76.51,18,100,3.04,MX,1611774405
474,Ilesha,7.1371,5.2583,80.96,54,84,6.51,NG,1611774406
475,Fortuna,40.5982,-124.1573,46.99,87,75,24.16,US,1611774407
476,Hulan,45.9833,126.6,-4.0,77,0,6.71,CN,1611774312
477,Adrar,20.5022,-10.0711,73.31,18,0,9.6,MR,1611774132
478,Kigali,-1.95,30.0588,66.2,82,75,8.05,RW,1611774174
479,Rey Bouba,8.6724,14.1786,83.68,15,0,4.14,CM,1611774413
480,Grand Gaube,-20.0064,57.6608,78.01,81,1,6.38,MU,1611774414
481,Queimadas,-10.9783,-39.6264,88.12,41,100,10.07,BR,1611774415
482,Lang Son,21.8333,106.7333,61.23,85,34,2.26,VN,1611774416
483,Sinnamary,5.3833,-52.95,80.33,72,14,12.24,GF,1611774417
484,Sambava,-14.2667,50.1667,79.29,79,14,1.43,MG,1611774418
485,San Jose,37.3394,-121.895,52.0,76,75,14.97,US,1611774286
486,Nizwá,22.9333,57.5333,56.62,53,0,3.09,OM,1611774421
487,Biggar,55.6167,-3.5167,37.0,10,100,1.99,GB,1611774423
488,Glotovka,53.9491,46.7042,27.14,97,100,15.35,RU,1611774424
489,Kulhudhuffushi,6.6221,73.07,81.03,68,24,12.97,MV,1611774425
490,Yumen,40.2833,97.2,18.9,73,0,1.74,CN,1611774426
491,Mehamn,71.0357,27.8492,23.0,80,90,14.97,NO,1611774427
492,Morro Bay,35.3658,-120.8499,52.0,96,100,8.01,US,1611774427
493,Luyang,27.6239,110.0989,40.93,90,69,2.26,CN,1611774431
494,Karratha,-20.7377,116.8463,84.67,58,0,14.45,AU,1611774432
495,Barra de Tecoanapa,16.5167,-98.75,84.72,51,1,10.67,MX,1611774433
496,Bull Savanna,17.8868,-77.5902,81.16,60,0,16.11,JM,1611774434
497,Amuntai,-2.4177,115.2494,73.02,97,95,1.83,ID,1611774435
498,Dukat,62.55,155.55,-37.52,80,100,5.23,RU,1611774436
499,Mala,-12.6581,-76.6308,76.59,64,28,8.25,PE,1611774438
500,Mopti,14.6667,-4.0,89.6,8,0,9.22,ML,1611774440
501,Woodward,36.4337,-99.3904,30.99,55,1,9.22,US,1611774441
502,Alexandria,31.2156,29.9553,59.0,44,40,16.11,EG,1611774442
503,Havelock,34.8791,-76.9013,51.01,93,90,3.18,US,1611774380
504,Muroto-misakicho,33.2833,134.15,50.63,68,0,12.21,JP,1611774445
505,Montepuez,-13.1256,38.9997,71.22,96,100,4.61,MZ,1611774446
506,Itarema,-2.9248,-39.9167,84.96,63,39,15.9,BR,1611774447
507,Pimentel,-6.8367,-79.9342,80.6,57,0,21.85,PE,1611774383
508,Biloela,-24.4167,150.5,69.55,90,1,7.56,AU,1611774449
509,Yeniseysk,58.4497,92.1703,-22.04,86,96,5.35,RU,1611774450
510,Ochakiv,46.6128,31.5498,32.0,100,90,13.42,UA,1611774451
511,Latung,5.5,120.8833,81.3,78,0,8.81,PH,1611774452
512,Cabra,37.4725,-4.4421,59.0,94,0,4.14,ES,1611774453
513,Santiago del Estero,-27.7951,-64.2615,95.23,28,51,9.13,AR,1611774162
514,Tyup,42.7276,78.3648,17.17,77,0,2.55,KG,1611774456
515,São Félix do Xingu,-6.6447,-51.995,85.53,69,44,2.37,BR,1611774458
516,Pokhara,28.2333,83.9833,51.87,40,0,3.91,NP,1611774460
517,Ixtapa,20.7,-105.2,85.35,31,59,5.91,MX,1611774461
518,Labytnangi,66.6572,66.4183,-30.14,83,100,4.45,RU,1611774463
519,Petropavlovsk-Kamchatskiy,53.0452,158.6483,8.6,66,0,13.42,RU,1611774342
520,Kieta,-6.2167,155.6333,80.29,80,100,6.73,PG,1611774465
521,Horconcitos,8.4682,-81.8007,80.28,56,94,5.59,PA,1611774466
522,Hlohovec,48.4317,17.8031,33.01,74,75,2.3,SK,1611774467
523,Great Falls,47.5002,-111.3008,33.8,37,90,18.41,US,1611774426
524,Vitim,59.4511,112.5578,-39.86,78,31,1.54,RU,1611774469
525,Bissau,11.8636,-15.5977,91.4,27,0,8.05,GW,1611774470
526,Batemans Bay,-35.7167,150.1833,64.0,87,100,4.0,AU,1611774472
527,Gorontalo,0.5412,123.0595,75.27,85,100,4.05,ID,1611774473
528,Saint-Augustin,51.226,-58.6502,21.69,93,78,7.25,CA,1611774474
529,Igrim,63.1906,64.4162,-7.76,91,100,7.4,RU,1611774475
530,Durban,-29.8579,31.0292,72.0,88,75,11.5,ZA,1611774476
531,Boyabat,41.4689,34.7667,45.27,68,17,5.23,TR,1611774477
532,São Geraldo do Araguaia,-6.4006,-48.555,85.03,78,64,1.36,BR,1611774479
533,Chimbote,-9.0853,-78.5783,75.78,68,100,10.85,PE,1611774275
534,Buraidah,26.326,43.975,64.4,48,0,12.66,SA,1611774450
535,Mount Gambier,-37.8333,140.7667,57.2,94,32,10.36,AU,1611774403
536,Syracuse,37.0881,15.2792,50.0,81,40,8.05,IT,1611774483
537,Palana,59.1167,159.9667,-1.82,96,100,4.88,RU,1611774484
538,Zhezkazgan,47.8043,67.7144,11.34,97,38,6.4,KZ,1611774485
539,Savé,8.0425,2.486,88.54,13,67,3.44,BJ,1611774486
540,Vodnyy,63.5046,53.4095,23.49,97,98,8.68,RU,1611774488
541,Areosa,41.7178,-8.8571,57.99,94,75,4.61,PT,1611774489
542,Gaya,24.7833,85.0,48.2,100,90,1.45,IN,1611774491
